[
    {
        "venueCode": "3110031",
        "name": "North District Town Hall (Auditorium)",
        "latitude": "22.501639",
        "longitude": "114.128911",
        "comment": []
    },
    {
        "venueCode": "36310035",
        "name": "Sha Tin Town Hall (Auditorium)",
        "latitude": "22.38136",
        "longitude": "114.18990",
        "comment": []
    },
    {
        "venueCode": "50110014",
        "name": "Hong Kong Cultural Centre (Concert Hall)",
        "latitude": "22.29386",
        "longitude": "114.17053",
        "comment": []
    },
    {
        "venueCode": "76810048",
        "name": "Tuen Mun Town Hall (Auditorium)",
        "latitude": "22.391810",
        "longitude": "113.976771",
        "comment": []
    },
    {
        "venueCode": "87110023",
        "name": "Kwai Tsing Theatre (Auditorium)",
        "latitude": "22.35665",
        "longitude": "114.12623",
        "comment": []
    },
    {
        "venueCode": "87210045",
        "name": "Tsuen Wan Town Hall (Auditorium)",
        "latitude": "22.37109",
        "longitude": "114.11277",
        "comment": []
    },
    {
        "venueCode": "87310051",
        "name": "Yuen Long Theatre (Auditorium)",
        "latitude": "22.44152",
        "longitude": "114.02289",
        "comment": []
    },
    {
        "venueCode": "87410028",
        "name": "Ngau Chi Wan Civic Centre (Cultural Activities Hall)",
        "latitude": "22.334583",
        "longitude": "114.208766",
        "comment": []
    },
    {
        "venueCode": "87610118",
        "name": "Ko Shan Theatre (Theatre)",
        "latitude": "22.31368",
        "longitude": "114.18556",
        "comment": []
    },
    {
        "venueCode": "87810039",
        "name": "Sheung Wan Civic Centre (Exhibition Hall)",
        "latitude": "22.28602",
        "longitude": "114.14967",
        "comment": []
    }
]